{
  "type": "FeatureCollection",
  "features": [
    {
      "type": "Feature",
      "properties": {
        "name": " C3 - Centro de Ciências Computacionais"
      },
      "geometry": {
        "type": "Point",
        "coordinates": [
          -52.168732,
          -32.072897
        ]
      }
    },
    {
      "type": "Feature",
      "properties": {
        "name": " ICB - Limnologia"
      },
      "geometry": {
        "type": "Point",
        "coordinates": [
          -52.170215,
          -32.076832
        ]
      }
    },
    {
      "type": "Feature",
      "properties": {
        "name": "Anexo 4"
      },
      "geometry": {
        "type": "Point",
        "coordinates": [
          -52.166873,
          -32.075757
        ]
      }
    },
    {
      "type": "Feature",
      "properties": {
        "name": "Anexo Pavilhão 4"
      },
      "geometry": {
        "type": "Point",
        "coordinates": [
          -52.166197,
          -32.075829
        ]
      }
    },
    {
      "type": "Feature",
      "properties": {
        "name": "Aprofurg"
      },
      "geometry": {
        "type": "Point",
        "coordinates": [
          -52.164867,
          -32.07552
        ]
      }
    },
    {
      "type": "Feature",
      "properties": {
        "name": "AQUATEC"
      },
      "geometry": {
        "type": "Point",
        "coordinates": [
          -52.161123,
          -32.063637
        ]
      }
    },
    {
      "type": "Feature",
      "properties": {
        "name": "Arquivo Geral FURG"
      },
      "geometry": {
        "type": "Point",
        "coordinates": [
          -52.163875,
          -32.073881
        ]
      }
    },
    {
      "type": "Feature",
      "properties": {
        "name": "Auditório do ILA"
      },
      "geometry": {
        "type": "Point",
        "coordinates": [
          -52.170655,
          -32.076847
        ]
      }
    },
    {
      "type": "Feature",
      "properties": {
        "name": "Auditório PROPLAN"
      },
      "geometry": {
        "type": "Point",
        "coordinates": [
          -52.161927,
          -32.069993
        ]
      }
    },
    {
      "type": "Feature",
      "properties": {
        "name": "Biblioteca Centra"
      },
      "geometry": {
        "type": "Point",
        "coordinates": [
          -52.167855,
          -32.075075
        ]
      }
    },
    {
      "type": "Feature",
      "properties": {
        "name": "Biosul"
      },
      "geometry": {
        "type": "Point",
        "coordinates": [
          -52.166718,
          -32.0723
        ]
      }
    },
    {
      "type": "Feature",
      "properties": {
        "name": "Biotério"
      },
      "geometry": {
        "type": "Point",
        "coordinates": [
          -52.159433,
          -32.066606
        ]
      }
    },
    {
      "type": "Feature",
      "properties": {
        "name": "Café Cultura"
      },
      "geometry": {
        "type": "Point",
        "coordinates": [
          -52.1665,
          -32.074188
        ]
      }
    },
    {
      "type": "Feature",
      "properties": {
        "name": "CAIC"
      },
      "geometry": {
        "type": "Point",
        "coordinates": [
          -52.171312,
          -32.07542
        ]
      }
    },
    {
      "type": "Feature",
      "properties": {
        "name": "CEAMECIM"
      },
      "geometry": {
        "type": "Point",
        "coordinates": [
          -52.170323,
          -32.076138
        ]
      }
    },
    {
      "type": "Feature",
      "properties": {
        "name": "CEILORS 1 - Núcleo Operacional de Triagem "
      },
      "geometry": {
        "type": "Point",
        "coordinates": [
          -52.159755,
          -32.069561
        ]
      }
    },
    {
      "type": "Feature",
      "properties": {
        "name": "CEMESUL"
      },
      "geometry": {
        "type": "Point",
        "coordinates": [
          -52.167394,
          -32.076561
        ]
      }
    },
    {
      "type": "Feature",
      "properties": {
        "name": "CENTECO"
      },
      "geometry": {
        "type": "Point",
        "coordinates": [
          -52.168013,
          -32.073361
        ]
      }
    },
    {
      "type": "Feature",
      "properties": {
        "name": "Centeco"
      },
      "geometry": {
        "type": "Point",
        "coordinates": [
          -52.171835,
          -32.073429
        ]
      }
    },
    {
      "type": "Feature",
      "properties": {
        "name": "Centro de Convivência - CC"
      },
      "geometry": {
        "type": "Point",
        "coordinates": [
          -52.166519,
          -32.074684
        ]
      }
    },
    {
      "type": "Feature",
      "properties": {
        "name": "Centro Esportivo"
      },
      "geometry": {
        "type": "Point",
        "coordinates": [
          -52.164556,
          -32.071961
        ]
      }
    },
    {
      "type": "Feature",
      "properties": {
        "name": "CEU 1"
      },
      "geometry": {
        "type": "Point",
        "coordinates": [
          -52.170129,
          -32.077688
        ]
      }
    },
    {
      "type": "Feature",
      "properties": {
        "name": "CEU 2"
      },
      "geometry": {
        "type": "Point",
        "coordinates": [
          -52.169673,
          -32.077525
        ]
      }
    },
    {
      "type": "Feature",
      "properties": {
        "name": "CEU 3"
      },
      "geometry": {
        "type": "Point",
        "coordinates": [
          -52.17014,
          -32.077984
        ]
      }
    },
    {
      "type": "Feature",
      "properties": {
        "name": "CIDEC-SUL"
      },
      "geometry": {
        "type": "Point",
        "coordinates": [
          -52.160903,
          -32.073566
        ]
      }
    },
    {
      "type": "Feature",
      "properties": {
        "name": "CTG"
      },
      "geometry": {
        "type": "Point",
        "coordinates": [
          -52.164829,
          -32.076261
        ]
      }
    },
    {
      "type": "Feature",
      "properties": {
        "name": "DCE"
      },
      "geometry": {
        "type": "Point",
        "coordinates": [
          -52.166229,
          -32.073534
        ]
      }
    },
    {
      "type": "Feature",
      "properties": {
        "name": "Deck"
      },
      "geometry": {
        "type": "Point",
        "coordinates": [
          -52.166144,
          -32.074597
        ]
      }
    },
    {
      "type": "Feature",
      "properties": {
        "name": "EDGRAF"
      },
      "geometry": {
        "type": "Point",
        "coordinates": [
          -52.162651,
          -32.074034
        ]
      }
    },
    {
      "type": "Feature",
      "properties": {
        "name": "Educação Física"
      },
      "geometry": {
        "type": "Point",
        "coordinates": [
          -52.163692,
          -32.070452
        ]
      }
    },
    {
      "type": "Feature",
      "properties": {
        "name": "EQA - Escola de Química e Alimentos - FURG"
      },
      "geometry": {
        "type": "Point",
        "coordinates": [
          -52.167388,
          -32.072575
        ]
      }
    },
    {
      "type": "Feature",
      "properties": {
        "name": "EQA LEEB CEAS - FURG"
      },
      "geometry": {
        "type": "Point",
        "coordinates": [
          -52.167957,
          -32.073027
        ]
      }
    },
    {
      "type": "Feature",
      "properties": {
        "name": "Estação de Apoio Antártico - ESANTAR"
      },
      "geometry": {
        "type": "Point",
        "coordinates": [
          -52.162517,
          -32.067833
        ]
      }
    },
    {
      "type": "Feature",
      "properties": {
        "name": "Expressão Gráfica"
      },
      "geometry": {
        "type": "Point",
        "coordinates": [
          -52.168665,
          -32.071815
        ]
      }
    },
    {
      "type": "Feature",
      "properties": {
        "name": "Galpão Crioulo"
      },
      "geometry": {
        "type": "Point",
        "coordinates": [
          -52.160039,
          -32.066115
        ]
      }
    },
    {
      "type": "Feature",
      "properties": {
        "name": "Garagem FURG"
      },
      "geometry": {
        "type": "Point",
        "coordinates": [
          -52.163172,
          -32.07482
        ]
      }
    },
    {
      "type": "Feature",
      "properties": {
        "name": "Hotel de Trânsito"
      },
      "geometry": {
        "type": "Point",
        "coordinates": [
          -52.165468,
          -32.077243
        ]
      }
    },
    {
      "type": "Feature",
      "properties": {
        "name": "ICB"
      },
      "geometry": {
        "type": "Point",
        "coordinates": [
          -52.168601,
          -32.075752
        ]
      }
    },
    {
      "type": "Feature",
      "properties": {
        "name": "ILA"
      },
      "geometry": {
        "type": "Point",
        "coordinates": [
          -52.169749,
          -32.07642
        ]
      }
    },
    {
      "type": "Feature",
      "properties": {
        "name": "ILA CAIC 2 (Instituto de Letras e Artes)"
      },
      "geometry": {
        "type": "Point",
        "coordinates": [
          -52.169706,
          -32.077018
        ]
      }
    },
    {
      "type": "Feature",
      "properties": {
        "name": "Imef / EE"
      },
      "geometry": {
        "type": "Point",
        "coordinates": [
          -52.167107,
          -32.073795
        ]
      }
    },
    {
      "type": "Feature",
      "properties": {
        "name": "Instituto de Ciências Biológicas"
      },
      "geometry": {
        "type": "Point",
        "coordinates": [
          -52.168906,
          -32.076188
        ]
      }
    },
    {
      "type": "Feature",
      "properties": {
        "name": "Instituto de Ciências Humanas e da Inrfomeção -ICHI"
      },
      "geometry": {
        "type": "Point",
        "coordinates": [
          -52.170365,
          -32.075357
        ]
      }
    },
    {
      "type": "Feature",
      "properties": {
        "name": "Instituto de Letras e Artes"
      },
      "geometry": {
        "type": "Point",
        "coordinates": [
          -52.167007,
          -32.07712
        ]
      }
    },
    {
      "type": "Feature",
      "properties": {
        "name": "Instituto de Oceanografia"
      },
      "geometry": {
        "type": "Point",
        "coordinates": [
          -52.162914,
          -32.068811
        ]
      }
    },
    {
      "type": "Feature",
      "properties": {
        "name": "Laboratório de Análises"
      },
      "geometry": {
        "type": "Point",
        "coordinates": [
          -52.165808,
          -32.072245
        ]
      }
    },
    {
      "type": "Feature",
      "properties": {
        "name": "Laboratório de Engenhaeia Civil"
      },
      "geometry": {
        "type": "Point",
        "coordinates": [
          -52.169078,
          -32.073675
        ]
      }
    },
    {
      "type": "Feature",
      "properties": {
        "name": "Laboratório de Esrudos de Oceano e Clima"
      },
      "geometry": {
        "type": "Point",
        "coordinates": [
          -52.161611,
          -32.06822
        ]
      }
    },
    {
      "type": "Feature",
      "properties": {
        "name": "Laboratório de Usinagem"
      },
      "geometry": {
        "type": "Point",
        "coordinates": [
          -52.168472,
          -32.073434
        ]
      }
    },
    {
      "type": "Feature",
      "properties": {
        "name": "LIFE"
      },
      "geometry": {
        "type": "Point",
        "coordinates": [
          -52.168402,
          -32.073811
        ]
      }
    },
    {
      "type": "Feature",
      "properties": {
        "name": "Manutenção"
      },
      "geometry": {
        "type": "Point",
        "coordinates": [
          -52.163789,
          -32.07482
        ]
      }
    },
    {
      "type": "Feature",
      "properties": {
        "name": "Manutenção Elétrica"
      },
      "geometry": {
        "type": "Point",
        "coordinates": [
          -52.163413,
          -32.074602
        ]
      }
    },
    {
      "type": "Feature",
      "properties": {
        "name": "Marcenária FURG"
      },
      "geometry": {
        "type": "Point",
        "coordinates": [
          -52.16417,
          -32.074361
        ]
      }
    },
    {
      "type": "Feature",
      "properties": {
        "name": "Metrologia"
      },
      "geometry": {
        "type": "Point",
        "coordinates": [
          -52.168654,
          -32.073841
        ]
      }
    },
    {
      "type": "Feature",
      "properties": {
        "name": "NUDESE"
      },
      "geometry": {
        "type": "Point",
        "coordinates": [
          -52.162745,
          -32.073456
        ]
      }
    },
    {
      "type": "Feature",
      "properties": {
        "name": "OCEABTEC - Prédio-Padrão 1B"
      },
      "geometry": {
        "type": "Point",
        "coordinates": [
          -52.16035,
          -32.063556
        ]
      }
    },
    {
      "type": "Feature",
      "properties": {
        "name": "Oceanogradia Biológica"
      },
      "geometry": {
        "type": "Point",
        "coordinates": [
          -52.160822,
          -32.06937
        ]
      }
    },
    {
      "type": "Feature",
      "properties": {
        "name": "Oceanografia"
      },
      "geometry": {
        "type": "Point",
        "coordinates": [
          -52.15991,
          -32.068897
        ]
      }
    },
    {
      "type": "Feature",
      "properties": {
        "name": "Oficinas"
      },
      "geometry": {
        "type": "Point",
        "coordinates": [
          -52.164277,
          -32.075066
        ]
      }
    },
    {
      "type": "Feature",
      "properties": {
        "name": "Oficinas"
      },
      "geometry": {
        "type": "Point",
        "coordinates": [
          -52.163569,
          -32.075443
        ]
      }
    },
    {
      "type": "Feature",
      "properties": {
        "name": "Pavilhão 1"
      },
      "geometry": {
        "type": "Point",
        "coordinates": [
          -52.168756,
          -32.074736
        ]
      }
    },
    {
      "type": "Feature",
      "properties": {
        "name": "Pavilhão 2"
      },
      "geometry": {
        "type": "Point",
        "coordinates": [
          -52.16793,
          -32.074488
        ]
      }
    },
    {
      "type": "Feature",
      "properties": {
        "name": "Pavilhão 3"
      },
      "geometry": {
        "type": "Point",
        "coordinates": [
          -52.168821,
          -32.07515
        ]
      }
    },
    {
      "type": "Feature",
      "properties": {
        "name": "Pavilhão 5"
      },
      "geometry": {
        "type": "Point",
        "coordinates": [
          -52.162233,
          -32.071325
        ]
      }
    },
    {
      "type": "Feature",
      "properties": {
        "name": "Pavilhão 6"
      },
      "geometry": {
        "type": "Point",
        "coordinates": [
          -52.167753,
          -32.076197
        ]
      }
    },
    {
      "type": "Feature",
      "properties": {
        "name": "Pavilhão da Psicologia"
      },
      "geometry": {
        "type": "Point",
        "coordinates": [
          -52.169893,
          -32.074716
        ]
      }
    },
    {
      "type": "Feature",
      "properties": {
        "name": "POLICAB"
      },
      "geometry": {
        "type": "Point",
        "coordinates": [
          -52.167994,
          -32.073525
        ]
      }
    },
    {
      "type": "Feature",
      "properties": {
        "name": "Pórtico Av. Roberto Socowski"
      },
      "geometry": {
        "type": "Point",
        "coordinates": [
          -52.171471,
          -32.066929
        ]
      }
    },
    {
      "type": "Feature",
      "properties": {
        "name": "Pórtico Rua Padre Nilo Gollo"
      },
      "geometry": {
        "type": "Point",
        "coordinates": [
          -52.158456,
          -32.073375
        ]
      }
    },
    {
      "type": "Feature",
      "properties": {
        "name": "Prédio da Música"
      },
      "geometry": {
        "type": "Point",
        "coordinates": [
          -52.166471,
          -32.07397
        ]
      }
    },
    {
      "type": "Feature",
      "properties": {
        "name": "Prédio das Artes"
      },
      "geometry": {
        "type": "Point",
        "coordinates": [
          -52.166905,
          -32.076679
        ]
      }
    },
    {
      "type": "Feature",
      "properties": {
        "name": "Pró Reitoria de Gestão de Pessoas"
      },
      "geometry": {
        "type": "Point",
        "coordinates": [
          -52.163263,
          -32.073802
        ]
      }
    },
    {
      "type": "Feature",
      "properties": {
        "name": "Pró Reitorias"
      },
      "geometry": {
        "type": "Point",
        "coordinates": [
          -52.165205,
          -32.076707
        ]
      }
    },
    {
      "type": "Feature",
      "properties": {
        "name": "PROGRAD - CEFOP"
      },
      "geometry": {
        "type": "Point",
        "coordinates": [
          -52.167453,
          -32.075466
        ]
      }
    },
    {
      "type": "Feature",
      "properties": {
        "name": "PROINFA"
      },
      "geometry": {
        "type": "Point",
        "coordinates": [
          -52.16455,
          -32.074852
        ]
      }
    },
    {
      "type": "Feature",
      "properties": {
        "name": "PROINFA - Prédio Multiuso"
      },
      "geometry": {
        "type": "Point",
        "coordinates": [
          -52.162949,
          -32.075097
        ]
      }
    },
    {
      "type": "Feature",
      "properties": {
        "name": "PROINFA - Prédio Multiuso"
      },
      "geometry": {
        "type": "Point",
        "coordinates": [
          -52.162689,
          -32.075193
        ]
      }
    },
    {
      "type": "Feature",
      "properties": {
        "name": "PROINFA / CGA - Armazenamento Temporário de Resíduos"
      },
      "geometry": {
        "type": "Point",
        "coordinates": [
          -52.162088,
          -32.075343
        ]
      }
    },
    {
      "type": "Feature",
      "properties": {
        "name": "PROINFA / PU - Manutenção Elétrica"
      },
      "geometry": {
        "type": "Point",
        "coordinates": [
          -52.162936,
          -32.074497
        ]
      }
    },
    {
      "type": "Feature",
      "properties": {
        "name": "PROINFA / PU - Manutenção Elétrica"
      },
      "geometry": {
        "type": "Point",
        "coordinates": [
          -52.163102,
          -32.074329
        ]
      }
    },
    {
      "type": "Feature",
      "properties": {
        "name": "PROPLAD"
      },
      "geometry": {
        "type": "Point",
        "coordinates": [
          -52.164486,
          -32.075616
        ]
      }
    },
    {
      "type": "Feature",
      "properties": {
        "name": "Reitoria"
      },
      "geometry": {
        "type": "Point",
        "coordinates": [
          -52.161155,
          -32.071965
        ]
      }
    },
    {
      "type": "Feature",
      "properties": {
        "name": "Restaurante Universitário"
      },
      "geometry": {
        "type": "Point",
        "coordinates": [
          -52.165951,
          -32.072979
        ]
      }
    },
    {
      "type": "Feature",
      "properties": {
        "name": "Restaurante Universitário"
      },
      "geometry": {
        "type": "Point",
        "coordinates": [
          -52.16661,
          -32.075116
        ]
      }
    },
    {
      "type": "Feature",
      "properties": {
        "name": "SEAD"
      },
      "geometry": {
        "type": "Point",
        "coordinates": [
          -52.170677,
          -32.076552
        ]
      }
    },
    {
      "type": "Feature",
      "properties": {
        "name": "SECOM (Secretaria de Comunicação Social)"
      },
      "geometry": {
        "type": "Point",
        "coordinates": [
          -52.159626,
          -32.071788
        ]
      }
    }
  ]
}